[{"teamName":"FC Energie Cottbus","division":0,"lng":14.319206,"lat":51.7234294},{"teamName":"TSG Neustrelitz","division":0,"lng":13.05555,"lat":53.35197},{"teamName":"Berliner Athletik Klub 07 e.V.","division":0,"lng":13.37241,"lat":52.4634},{"teamName":"Eintracht Braunschweig II","division":0,"lng":10.5207142,"lat":52.2900254},{"teamName":"BFC Dynamo","division":0,"lng":13.4084916,"lat":52.5436337},{"teamName":"Hertha BSC II","division":0,"lng":13.2352326,"lat":52.517485},{"teamName":"FC Viktoria 1889 Berlin","division":0,"lng":13.3242239,"lat":52.4384697},{"teamName":"BSG Chemie Leipzig","division":0,"lng":12.308,"lat":51.3578},{"teamName":"Hamburger SV II","division":0,"lng":9.8996012,"lat":53.5871028},{"teamName":"FSV Union Fürstenwalde","division":0,"lng":14.0345584,"lat":52.3666804},{"teamName":"VfB Germania Halberstadt","division":0,"lng":11.0482513,"lat":51.8790639},{"teamName":"SV Babelsberg","division":0,"lng":13.09399,"lat":52.3989},{"teamName":"VfL Wolfsburg II","division":0,"lng":10.8013194,"lat":52.4254152},{"teamName":"1. FC Lokomotive Leipzig","division":0,"lng":12.4146286,"lat":51.3043569},{"teamName":"ZFC Meuselwitz","division":0,"lng":12.2826204,"lat":51.0502339},{"teamName":"VSG Altglienicke","division":0,"lng":13.48565,"lat":52.47131},{"teamName":"Bonner SC","division":1,"lng":7.0814918,"lat":50.7532425},{"teamName":"FK 03 Pirmasens","division":1,"lng":7.6089468,"lat":49.2185408},{"teamName":"FC-Astoria Walldorf","division":1,"lng":8.639408,"lat":49.3142256},{"teamName":"SV Schalding-Heining","division":1,"lng":13.01855,"lat":48.70031},{"teamName":"FC Ingolstadt 04 II","division":1,"lng":11.4411424,"lat":48.7439328},{"teamName":"SpVgg Greuther Fürth II","division":1,"lng":10.996572,"lat":49.500662},{"teamName":"1. FC Schweinfurt 05","division":1,"lng":10.2016423,"lat":50.0506748},{"teamName":"FC Augsburg II","division":1,"lng":10.87423,"lat":48.35486},{"teamName":"TSV 1860 Rosenheim","division":1,"lng":12.13038,"lat":47.84865},{"teamName":"TSV Rain\/Lech","division":1,"lng":10.9081,"lat":48.69483},{"teamName":"TSV 1860 München","division":1,"lng":11.5749188,"lat":48.1114005},{"teamName":"FC Bayern München II","division":1,"lng":11.5749188,"lat":48.1114005},{"teamName":"1. FC Nürnberg II","division":1,"lng":11.1322369,"lat":49.4356027},{"teamName":"FC Pipinsried","division":1,"lng":11.28957,"lat":48.40812},{"teamName":"FC Memmingen","division":1,"lng":10.16845,"lat":47.97939},{"teamName":"SV Wacker Burghausen","division":1,"lng":12.8071855,"lat":48.159832},{"teamName":"1. FC Saarbrücken","division":2,"lng":6.9853355,"lat":49.2504568},{"teamName":"VfB Stuttgart II","division":2,"lng":9.3895047,"lat":48.5748859},{"teamName":"FC 08 Villingen","division":2,"lng":8.4264177,"lat":48.0552196},{"teamName":"Eintr. Stadtallendorf","division":2,"lng":9.0102618,"lat":50.8280729},{"teamName":"TSG 1899 Hoffenheim II","division":2,"lng":8.8193919,"lat":49.2994806},{"teamName":"TSV Schott Mainz","division":2,"lng":8.2241004,"lat":50.0134479},{"teamName":"SV  Elversberg","division":2,"lng":7.8661161,"lat":49.8520997},{"teamName":"1. FC Köln U21","division":2,"lng":6.9069354,"lat":50.9071191},{"teamName":"SC Freiburg II","division":2,"lng":7.8044437,"lat":48.0029215},{"teamName":"VfR Wormatia Worms","division":2,"lng":8.33494,"lat":49.63138},{"teamName":"FSV Frankfurt","division":2,"lng":8.7230618,"lat":50.1280603},{"teamName":"SV Röchl. Völklingen","division":2,"lng":6.9861728,"lat":49.2491299},{"teamName":"1. FSV Mainz 05 U23","division":2,"lng":8.246959,"lat":49.999511},{"teamName":"SV Waldhof Mannheim","division":2,"lng":8.50201,"lat":49.47994},{"teamName":"TuS Koblenz","division":2,"lng":7.58533,"lat":50.3350626},{"teamName":"FC Bayern Alzenau","division":2,"lng":9.0575999,"lat":50.0816287},{"teamName":"TSV Steinbach","division":3,"lng":8.1928547,"lat":50.7405808},{"teamName":"Fortuna Düsseldorf U23","division":3,"lng":6.82858,"lat":51.22544},{"teamName":"KFC Uerdingen","division":3,"lng":6.6037463,"lat":51.3389189},{"teamName":"KSV Hessen Kassel","division":3,"lng":9.4842893,"lat":51.291749},{"teamName":"SC Verl","division":3,"lng":8.512157,"lat":51.8826251},{"teamName":"TSV Alemannia Aachen","division":3,"lng":6.09316,"lat":50.79023},{"teamName":"SG Wattenscheid 09","division":3,"lng":7.127772,"lat":51.477481},{"teamName":"SV Rödinghausen","division":3,"lng":8.5066292,"lat":52.2498858},{"teamName":"Rot-Weiss Essen","division":3,"lng":6.97651,"lat":51.4858},{"teamName":"FC Viktoria Köln","division":3,"lng":7.029946,"lat":50.944091},{"teamName":"Rot-Weiß Oberhausen","division":3,"lng":6.8551559,"lat":51.4939049},{"teamName":"FC Wegberg-Beeck","division":3,"lng":6.3019292,"lat":51.1378624},{"teamName":"Borussia Dortmund II","division":3,"lng":7.5894974,"lat":51.6147703},{"teamName":"Wuppertaler SV","division":3,"lng":7.1048111,"lat":51.2391389},{"teamName":"TuS Erndtebrück","division":3,"lng":8.248252,"lat":50.985393},{"teamName":"Borussia Mönchengladbach U23 2","division":3,"lng":6.4499414,"lat":51.1744853},{"teamName":"SV Westfalia Rhynern","division":3,"lng":7.865010000000001,"lat":51.63431},{"teamName":"SC Wiedenbrück","division":3,"lng":8.1459871,"lat":51.7666894},{"teamName":"SpVgg Bayreuth","division":4,"lng":11.507571,"lat":50.0190659},{"teamName":"VfR Garching","division":4,"lng":11.6403354,"lat":48.2608343},{"teamName":"FSV Wacker Nordhausen","division":4,"lng":11.28681,"lat":51.47518},{"teamName":"SV Stuttgarter Kickers","division":4,"lng":9.18592,"lat":48.74812},{"teamName":"SV Seligenporten","division":4,"lng":11.2993761,"lat":49.2655995},{"teamName":"FSV 63 Luckenwalde","division":4,"lng":13.1495633,"lat":52.1027245},{"teamName":"FC Oberlausitz Neugersdorf","division":4,"lng":14.61107,"lat":50.97556},{"teamName":"FSV Budissa Bautzen","division":4,"lng":12.6455314,"lat":50.1837347},{"teamName":"FV Illertissen","division":4,"lng":10.0944825,"lat":48.2166763},{"teamName":"FC Unterföhring","division":4,"lng":11.74874,"lat":48.16329},{"teamName":"Kickers Offenbach","division":4,"lng":8.798805,"lat":50.094474},{"teamName":"TSV Buchbach","division":4,"lng":12.2755366,"lat":48.3142978},{"teamName":"SSV Ulm 1846 Fußball","division":4,"lng":9.895041,"lat":48.3235177},{"teamName":"VfB Eichstätt","division":4,"lng":11.191268,"lat":48.8875518},{"teamName":"TSV Aubstadt","division":4,"lng":10.43363,"lat":50.33037},{"teamName":"VfB Auerbach","division":4,"lng":12.3827529,"lat":50.5097818},{"teamName":"FC St. Pauli II","division":5,"lng":9.3560469,"lat":53.2409724},{"teamName":"VfB Oldenburg","division":5,"lng":8.20524,"lat":53.12943},{"teamName":"HANNOVER 96 II","division":5,"lng":9.7734825,"lat":52.3755144},{"teamName":"Brinkumer SV","division":5,"lng":8.7724289,"lat":53.0060412},{"teamName":"Holstein Kiel II","division":5,"lng":10.0935729,"lat":54.3613771},{"teamName":"TSV Havelse","division":5,"lng":9.73044,"lat":52.35668},{"teamName":"VfB Lübeck","division":5,"lng":10.6693,"lat":53.88122},{"teamName":"Lüneburger Sport-Klub Hansa","division":5,"lng":10.6285094,"lat":53.2664447},{"teamName":"BSV Rehden","division":5,"lng":8.4818881,"lat":52.6159468},{"teamName":"VfL Oldenburg","division":5,"lng":8.2100612,"lat":53.1541537},{"teamName":"Eutin 08","division":5,"lng":10.629172,"lat":54.150056},{"teamName":"SSV Jeddeloh","division":5,"lng":8.05731,"lat":53.09054},{"teamName":"VfV Borussia 06 Hildesheim","division":5,"lng":9.9457803,"lat":52.1666017},{"teamName":"1.FC Germania Egestorf-Langreder","division":5,"lng":9.73044,"lat":52.35668},{"teamName":"SpVgg Drochtersen\/Assel","division":5,"lng":9.61539,"lat":53.47184},{"teamName":"Teutonia 05 1.","division":5,"lng":9.9194456,"lat":53.5519683},{"teamName":"FC Eintracht Norderstedt","division":5,"lng":9.975458,"lat":53.6775627},{"teamName":"Altona 93 1.","division":5,"lng":9.9104371,"lat":53.5553142},{"teamName":"SC Weiche Flensburg 08","division":5,"lng":9.4066113,"lat":54.7595933}]